[
  {
    "name": "Abbey Wood",
    "id": "910GABWD",
    "lat": 51.491247,
    "lon": 0.121057
  },
  {
    "name": "Acton Central",
    "id": "910GACTNCTL",
    "lat": 51.508716,
    "lon": -0.262971
  },
  {
    "name": "Acton Main Line",
    "id": "910GACTONML",
    "lat": 51.51718,
    "lon": -0.266756
  },
  {
    "name": "Acton Town",
    "id": "940GZZLUACT",
    "lat": 51.503057,
    "lon": -0.280462
  },
  {
    "name": "Albany Park",
    "id": "910GALBNYPK",
    "lat": 51.435453,
    "lon": 0.125737
  },
  {
    "name": "Aldgate",
    "id": "940GZZLUALD",
    "lat": 51.514246,
    "lon": -0.075689
  },
  {
    "name": "Aldgate East",
    "id": "940GZZLUADE",
    "lat": 51.515037,
    "lon": -0.072384
  },
  {
    "name": "Alexandra Palace",
    "id": "910GALEXNDP",
    "lat": 51.597924,
    "lon": -0.120235
  },
  {
    "name": "All Saints",
    "id": "940GZZDLALL",
    "lat": 51.511,
    "lon": -0.013135
  },
  {
    "name": "Alperton",
    "id": "940GZZLUALP",
    "lat": 51.540627,
    "lon": -0.29961
  },
  {
    "name": "Anerley",
    "id": "910GANERLEY",
    "lat": 51.412153,
    "lon": -0.065886
  },
  {
    "name": "Archway",
    "id": "940GZZLUACY",
    "lat": 51.565478,
    "lon": -0.134819
  },
  {
    "name": "Arnos Grove",
    "id": "940GZZLUASG",
    "lat": 51.616446,
    "lon": -0.133062
  },
  {
    "name": "Arsenal",
    "id": "940GZZLUASL",
    "lat": 51.558655,
    "lon": -0.107457
  },
  {
    "name": "Baker Street",
    "id": "940GZZLUBST",
    "lat": 51.522883,
    "lon": -0.15713
  },
  {
    "name": "Balham",
    "id": "910GBALHAM",
    "lat": 51.443259,
    "lon": -0.152707
  },
  {
    "name": "Bank",
    "id": "940GZZLUBNK",
    "lat": 51.513395,
    "lon": -0.089095
  },
  {
    "name": "Banstead",
    "id": "910GBANSTED",
    "lat": 51.329349,
    "lon": -0.213159
  },
  {
    "name": "Barbican",
    "id": "940GZZLUBBN",
    "lat": 51.520275,
    "lon": -0.097993
  },
  {
    "name": "Barking",
    "id": "910GBARKING",
    "lat": 51.539413,
    "lon": 0.080988
  },
  {
    "name": "Barking Underground",
    "id": "910GBARKING",
    "lat": 51.539413,
    "lon": 0.080988
  },
  {
    "name": "Barkingside",
    "id": "940GZZLUBKE",
    "lat": 51.585689,
    "lon": 0.088585
  },
  {
    "name": "Barnes",
    "id": "910GBARNES",
    "lat": 51.467086,
    "lon": -0.242164
  },
  {
    "name": "Barnes Bridge",
    "id": "910GBNSBDGE",
    "lat": 51.472009,
    "lon": -0.25263
  },
  {
    "name": "Barons Court",
    "id": "940GZZLUBSC",
    "lat": 51.490311,
    "lon": -0.213427
  },
  {
    "name": "Bat & Ball",
    "id": "910GBATABAL",
    "lat": 51.289761,
    "lon": 0.194228
  },
  {
    "name": "Battersea Park",
    "id": "910GQTRDBAT",
    "lat": 51.474968,
    "lon": -0.146678
  },
  {
    "name": "Bayswater",
    "id": "940GZZLUBWT",
    "lat": 51.512284,
    "lon": -0.187938
  },
  {
    "name": "Beckenham Hill",
    "id": "910GBCKNHMH",
    "lat": 51.424583,
    "lon": -0.015951
  },
  {
    "name": "Beckenham Junction",
    "id": "910GBCKNHMJ",
    "lat": 51.411175,
    "lon": -0.026016
  },
  {
    "name": "Beckton",
    "id": "940GZZDLBEC",
    "lat": 51.514362,
    "lon": 0.061453
  },
  {
    "name": "Beckton Park",
    "id": "940GZZDLBPK",
    "lat": 51.508793,
    "lon": 0.054932
  },
  {
    "name": "Becontree",
    "id": "940GZZLUBEC",
    "lat": 51.540331,
    "lon": 0.127016
  },
  {
    "name": "Bellingham",
    "id": "910GBELNGHM",
    "lat": 51.432913,
    "lon": -0.019331
  },
  {
    "name": "Belmont",
    "id": "910GBELM",
    "lat": 51.343815,
    "lon": -0.198855
  },
  {
    "name": "Belsize Park",
    "id": "940GZZLUBZP",
    "lat": 51.550311,
    "lon": -0.164648
  },
  {
    "name": "Belvedere",
    "id": "910GBELVEDR",
    "lat": 51.492118,
    "lon": 0.152286
  },
  {
    "name": "Bermondsey",
    "id": "940GZZLUBMY",
    "lat": 51.49775,
    "lon": -0.063993
  },
  {
    "name": "Bethnal Green",
    "id": "910GBTHNLGR",
    "lat": 51.523917,
    "lon": -0.059568
  },
  {
    "name": "Bexley",
    "id": "910GBEXLEY",
    "lat": 51.440219,
    "lon": 0.147903
  },
  {
    "name": "Bickley",
    "id": "910GBICKLEY",
    "lat": 51.400104,
    "lon": 0.045241
  },
  {
    "name": "Birkbeck",
    "id": "910GBIRKBCK",
    "lat": 51.403893,
    "lon": -0.055733
  },
  {
    "name": "Blackfriars",
    "id": "910GBLFR",
    "lat": 51.509613,
    "lon": -0.104166
  },
  {
    "name": "Blackheath",
    "id": "910GBLKHTH",
    "lat": 51.465796,
    "lon": 0.008872
  },
  {
    "name": "Blackhorse Road",
    "id": "910GBLCHSRD",
    "lat": 51.586768,
    "lon": -0.041185
  },
  {
    "name": "Blackwall",
    "id": "940GZZDLBLA",
    "lat": 51.507991,
    "lon": -0.006969
  },
  {
    "name": "Bond Street",
    "id": "940GZZLUBND",
    "lat": 51.513362,
    "lon": -0.148795
  },
  {
    "name": "Borough",
    "id": "940GZZLUBOR",
    "lat": 51.501199,
    "lon": -0.09337
  },
  {
    "name": "Boston Manor",
    "id": "940GZZLUBOS",
    "lat": 51.495635,
    "lon": -0.324939
  },
  {
    "name": "Bounds Green",
    "id": "910GBOWESPK",
    "lat": 51.607012,
    "lon": -0.120582
  },
  {
    "name": "Bow Church",
    "id": "940GZZDLBOW",
    "lat": 51.527858,
    "lon": -0.020936
  },
  {
    "name": "Bow Road",
    "id": "940GZZLUBWR",
    "lat": 51.52694,
    "lon": -0.025128
  },
  {
    "name": "Bowes Park",
    "id": "910GBOWESPK",
    "lat": 51.607012,
    "lon": -0.120582
  },
  {
    "name": "Brent Cross",
    "id": "940GZZLUBTX",
    "lat": 51.57665,
    "lon": -0.213622
  },
  {
    "name": "Brentford",
    "id": "910GBNTFORD",
    "lat": 51.487547,
    "lon": -0.309651
  },
  {
    "name": "Brimsdown",
    "id": "910GBRIMSDN",
    "lat": 51.655583,
    "lon": -0.030817
  },
  {
    "name": "Brixton",
    "id": "910GBRIXTON",
    "lat": 51.462961,
    "lon": -0.114531
  },
  {
    "name": "Brockley",
    "id": "910GBROCKLY",
    "lat": 51.464649,
    "lon": -0.037537
  },
  {
    "name": "Bromley North",
    "id": "910GBROMLYN",
    "lat": 51.408328,
    "lon": 0.016993
  },
  {
    "name": "Bromley South",
    "id": "910GBROMLYS",
    "lat": 51.399976,
    "lon": 0.017344
  },
  {
    "name": "Bromley-By-Bow",
    "id": "940GZZLUBBB",
    "lat": 51.524839,
    "lon": -0.011538
  },
  {
    "name": "Brondesbury",
    "id": "910GBRBY",
    "lat": 51.545166,
    "lon": -0.202309
  },
  {
    "name": "Brondesbury Park",
    "id": "910GBRBYPK",
    "lat": 51.540734,
    "lon": -0.210054
  },
  {
    "name": "Bruce Grove",
    "id": "910GBRUCGRV",
    "lat": 51.593959,
    "lon": -0.069867
  },
  {
    "name": "Burnt Oak",
    "id": "940GZZLUBTK",
    "lat": 51.602774,
    "lon": -0.264048
  },
  {
    "name": "Bush Hill Park",
    "id": "910GBHILLPK",
    "lat": 51.641519,
    "lon": -0.069221
  },
  {
    "name": "Caledonian Road",
    "id": "940GZZLUCAR",
    "lat": 51.548519,
    "lon": -0.118493
  },
  {
    "name": "Caledonian Road & Barnsbury",
    "id": "910GCLDNNRB",
    "lat": 51.543041,
    "lon": -0.116729
  },
  {
    "name": "Cambridge Heath",
    "id": "910GCAMHTH",
    "lat": 51.531973,
    "lon": -0.057279
  },
  {
    "name": "Camden Road",
    "id": "910GCMDNRD",
    "lat": 51.541791,
    "lon": -0.138701
  },
  {
    "name": "Camden Town",
    "id": "940GZZLUCTN",
    "lat": 51.539292,
    "lon": -0.14274
  },
  {
    "name": "Canada Water",
    "id": "910GCNDAW",
    "lat": 51.498053,
    "lon": -0.049667
  },
  {
    "name": "Canary Wharf",
    "id": "940GZZLUCYF",
    "lat": 51.503734,
    "lon": -0.019121
  },
  {
    "name": "Canning Town",
    "id": "940GZZLUCGT",
    "lat": 51.514029,
    "lon": 0.008025
  },
  {
    "name": "Cannon Street",
    "id": "940GZZLUCST",
    "lat": 51.511451,
    "lon": -0.090357
  },
  {
    "name": "Canonbury",
    "id": "910GCNNB",
    "lat": 51.548732,
    "lon": -0.092191
  },
  {
    "name": "Canons Park",
    "id": "940GZZLUCPK",
    "lat": 51.607701,
    "lon": -0.294693
  },
  {
    "name": "Carshalton",
    "id": "910GCRSHLTN",
    "lat": 51.368454,
    "lon": -0.166368
  },
  {
    "name": "Carshalton Beeches",
    "id": "910GCRSHLTB",
    "lat": 51.357411,
    "lon": -0.169797
  },
  {
    "name": "Castle Bar Park",
    "id": "910GCBARPAR",
    "lat": 51.522931,
    "lon": -0.331549
  },
  {
    "name": "Catford",
    "id": "910GCATFBDG",
    "lat": 51.444741,
    "lon": -0.024791
  },
  {
    "name": "Catford Bridge",
    "id": "910GCATFORD",
    "lat": 51.444407,
    "lon": -0.026317
  },
  {
    "name": "Chadwell Heath",
    "id": "910GCHDWLHT",
    "lat": 51.568039,
    "lon": 0.128958
  },
  {
    "name": "Chalk Farm",
    "id": "940GZZLUCFM",
    "lat": 51.544118,
    "lon": -0.153388
  },
  {
    "name": "Chancery Lane",
    "id": "940GZZLUCHL",
    "lat": 51.518247,
    "lon": -0.111583
  },
  {
    "name": "Charing Cross",
    "id": "910GCHRX",
    "lat": 51.507819,
    "lon": -0.126137
  },
  {
    "name": "Charlton",
    "id": "910GCRLN",
    "lat": 51.486813,
    "lon": 0.031258
  },
  {
    "name": "Cheam",
    "id": "910GCHEAM",
    "lat": 51.355479,
    "lon": -0.214167
  },
  {
    "name": "Chelsfield",
    "id": "910GCHLSFLD",
    "lat": 51.356256,
    "lon": 0.10907
  },
  {
    "name": "Chessington North",
    "id": "910GCHSSN",
    "lat": 51.364041,
    "lon": -0.300699
  },
  {
    "name": "Chessington South",
    "id": "910GCHSSS",
    "lat": 51.35655,
    "lon": -0.308157
  },
  {
    "name": "Chingford",
    "id": "910GCHINGFD",
    "lat": 51.633087,
    "lon": 0.009897
  },
  {
    "name": "Chipstead",
    "id": "910GCHSD",
    "lat": 51.309277,
    "lon": -0.169503
  },
  {
    "name": "Chislehurst",
    "id": "910GCHSLHRS",
    "lat": 51.405557,
    "lon": 0.057418
  },
  {
    "name": "Chiswick",
    "id": "910GCHISWCK",
    "lat": 51.481137,
    "lon": -0.267835
  },
  {
    "name": "Chiswick Park",
    "id": "940GZZLUCWP",
    "lat": 51.494627,
    "lon": -0.267972
  },
  {
    "name": "City Thameslink",
    "id": "910GCTMSLNK",
    "lat": 51.513936,
    "lon": -0.10359
  },
  {
    "name": "Clapham Common",
    "id": "940GZZLUCPC",
    "lat": 51.461742,
    "lon": -0.138317
  },
  {
    "name": "Clapham High Street",
    "id": "910GCLPHHS",
    "lat": 51.465481,
    "lon": -0.132522
  },
  {
    "name": "Clapham Junction",
    "id": "910GCLPHMJC",
    "lat": 51.463724,
    "lon": -0.168997
  },
  {
    "name": "Clapham North",
    "id": "910GCLPHHS",
    "lat": 51.465481,
    "lon": -0.132522
  },
  {
    "name": "Clapham South",
    "id": "940GZZLUCPS",
    "lat": 51.452654,
    "lon": -0.147582
  },
  {
    "name": "Clapton",
    "id": "910GCLAPTON",
    "lat": 51.561644,
    "lon": -0.057025
  },
  {
    "name": "Clock House",
    "id": "910GCLOCKHS",
    "lat": 51.408586,
    "lon": -0.040657
  },
  {
    "name": "Cockfosters",
    "id": "940GZZLUCKS",
    "lat": 51.65152,
    "lon": -0.149171
  },
  {
    "name": "Colindale",
    "id": "940GZZLUCND",
    "lat": 51.595424,
    "lon": -0.249919
  },
  {
    "name": "Colliers Wood",
    "id": "940GZZLUCSD",
    "lat": 51.41816,
    "lon": -0.178086
  },
  {
    "name": "Coulsdon South",
    "id": "910GCOLSDNS",
    "lat": 51.315838,
    "lon": -0.137887
  },
  {
    "name": "Coulsdon Town",
    "id": "910GCOLSTWN",
    "lat": 51.322043,
    "lon": -0.134464
  },
  {
    "name": "Covent Garden",
    "id": "940GZZLUCGN",
    "lat": 51.513093,
    "lon": -0.124436
  },
  {
    "name": "Crayford",
    "id": "910GCRFD",
    "lat": 51.44828,
    "lon": 0.178936
  },
  {
    "name": "Crews Hill",
    "id": "910GCRHL",
    "lat": 51.684486,
    "lon": -0.106887
  },
  {
    "name": "Cricklewood",
    "id": "910GCRKLWD",
    "lat": 51.558453,
    "lon": -0.212677
  },
  {
    "name": "Crofton Park",
    "id": "910GCFPK",
    "lat": 51.455189,
    "lon": -0.036503
  },
  {
    "name": "Crossharbour",
    "id": "940GZZDLCLA",
    "lat": 51.495728,
    "lon": -0.014606
  },
  {
    "name": "Crouch Hill",
    "id": "910GCROUCHH",
    "lat": 51.571302,
    "lon": -0.117149
  },
  {
    "name": "Crystal Palace",
    "id": "910GCRYSTLP",
    "lat": 51.418111,
    "lon": -0.072605
  },
  {
    "name": "Custom House",
    "id": "940GZZDLCUS",
    "lat": 51.518757,
    "lon": 0.027418
  },
  {
    "name": "Cutty Sark",
    "id": "940GZZDLCUT",
    "lat": 51.481675,
    "lon": -0.010802
  },
  {
    "name": "Cyprus",
    "id": "940GZZDLCYP",
    "lat": 51.508473,
    "lon": 0.063925
  },
  {
    "name": "Dagenham Dock",
    "id": "910GDGNHMDC",
    "lat": 51.526156,
    "lon": 0.145904
  },
  {
    "name": "Dagenham East",
    "id": "940GZZLUDGE",
    "lat": 51.544096,
    "lon": 0.166017
  },
  {
    "name": "Dagenham Heathway",
    "id": "940GZZLUDGY",
    "lat": 51.541639,
    "lon": 0.147527
  },
  {
    "name": "Dalston Junction",
    "id": "910GDALS",
    "lat": 51.546116,
    "lon": -0.075137
  },
  {
    "name": "Dalston Kingsland",
    "id": "910GDALS",
    "lat": 51.546116,
    "lon": -0.075137
  },
  {
    "name": "Dartford",
    "id": "910GDARTFD",
    "lat": 51.447371,
    "lon": 0.219248
  },
  {
    "name": "Denham",
    "id": "910GDENHAM",
    "lat": 51.578837,
    "lon": -0.497437
  },
  {
    "name": "Denham Golf Club",
    "id": "910GDENHMGC",
    "lat": 51.580598,
    "lon": -0.517787
  },
  {
    "name": "Denmark Hill",
    "id": "910GDENMRKH",
    "lat": 51.468203,
    "lon": -0.089361
  },
  {
    "name": "Deptford",
    "id": "910GDEPTFD",
    "lat": 51.478848,
    "lon": -0.02627
  },
  {
    "name": "Deptford Bridge",
    "id": "940GZZDLDEP",
    "lat": 51.474215,
    "lon": -0.022438
  },
  {
    "name": "Devons Road",
    "id": "940GZZDLDEV",
    "lat": 51.522667,
    "lon": -0.017615
  },
  {
    "name": "Dollis Hill",
    "id": "940GZZLUDOH",
    "lat": 51.551955,
    "lon": -0.239068
  },
  {
    "name": "Drayton Green",
    "id": "910GDRAYGRN",
    "lat": 51.516617,
    "lon": -0.330194
  },
  {
    "name": "Drayton Park",
    "id": "910GDRYP",
    "lat": 51.55277,
    "lon": -0.105509
  },
  {
    "name": "Ealing Broadway",
    "id": "910GEALINGB",
    "lat": 51.514993,
    "lon": -0.302131
  },
  {
    "name": "Ealing Common",
    "id": "940GZZLUECM",
    "lat": 51.51014,
    "lon": -0.288265
  },
  {
    "name": "Earls Court",
    "id": "940GZZLUECT",
    "lat": 51.492063,
    "lon": -0.193378
  },
  {
    "name": "Earlsfield",
    "id": "910GERLFLD",
    "lat": 51.442337,
    "lon": -0.187715
  },
  {
    "name": "East Acton",
    "id": "940GZZLUEAN",
    "lat": 51.516612,
    "lon": -0.247248
  },
  {
    "name": "East Croydon",
    "id": "910GECROYDN",
    "lat": 51.375995,
    "lon": -0.091172
  },
  {
    "name": "East Dulwich",
    "id": "910GEDULWCH",
    "lat": 51.461494,
    "lon": -0.080572
  },
  {
    "name": "East Finchley",
    "id": "940GZZLUEFY",
    "lat": 51.587131,
    "lon": -0.165012
  },
  {
    "name": "East Ham",
    "id": "940GZZLUEHM",
    "lat": 51.538948,
    "lon": 0.051186
  },
  {
    "name": "East India",
    "id": "940GZZDLEIN",
    "lat": 51.509359,
    "lon": -0.002326
  },
  {
    "name": "East Putney",
    "id": "940GZZLUEPY",
    "lat": 51.459205,
    "lon": -0.211
  },
  {
    "name": "Eastcote",
    "id": "940GZZLUEAE",
    "lat": 51.576506,
    "lon": -0.397373
  },
  {
    "name": "Eden Park",
    "id": "910GEDPK",
    "lat": 51.390091,
    "lon": -0.026355
  },
  {
    "name": "Edgware",
    "id": "940GZZLUEGW",
    "lat": 51.613653,
    "lon": -0.274928
  },
  {
    "name": "Edgware Road (Bakerloo)",
    "id": "940GZZLUERB",
    "lat": 51.520299,
    "lon": -0.17015
  },
  {
    "name": "Edgware Road (Circle)",
    "id": "940GZZLUERC",
    "lat": 51.519858,
    "lon": -0.167832
  },
  {
    "name": "Edmonton Green",
    "id": "910GEDMNGRN",
    "lat": 51.624929,
    "lon": -0.061112
  },
  {
    "name": "Elephant & Castle",
    "id": "910GELPHNAC",
    "lat": 51.494505,
    "lon": -0.099185
  },
  {
    "name": "Elephant & Castle (Underground)",
    "id": "910GELPHNAC",
    "lat": 51.494505,
    "lon": -0.099185
  },
  {
    "name": "Elm Park",
    "id": "940GZZLUEPK",
    "lat": 51.549775,
    "lon": 0.19864
  },
  {
    "name": "Elmers End",
    "id": "910GELMERSE",
    "lat": 51.398302,
    "lon": -0.049429
  },
  {
    "name": "Elmstead Woods",
    "id": "910GELMW",
    "lat": 51.417118,
    "lon": 0.044274
  },
  {
    "name": "Eltham",
    "id": "910GELTHAM",
    "lat": 51.455644,
    "lon": 0.052472
  },
  {
    "name": "Elverson Road",
    "id": "940GZZDLELV",
    "lat": 51.469074,
    "lon": -0.016728
  },
  {
    "name": "Embankment",
    "id": "910GCHRX",
    "lat": 51.507819,
    "lon": -0.126137
  },
  {
    "name": "Enfield Chase",
    "id": "910GENFC",
    "lat": 51.653254,
    "lon": -0.090696
  },
  {
    "name": "Enfield Lock",
    "id": "910GENFLDLK",
    "lat": 51.670922,
    "lon": -0.028532
  },
  {
    "name": "Enfield Town",
    "id": "910GENFLDTN",
    "lat": 51.652026,
    "lon": -0.079328
  },
  {
    "name": "Erith",
    "id": "910GERITH",
    "lat": 51.481671,
    "lon": 0.175055
  },
  {
    "name": "Essex Road",
    "id": "910GESSEXRD",
    "lat": 51.540705,
    "lon": -0.096276
  },
  {
    "name": "Euston",
    "id": "910GEUSTON",
    "lat": 51.527365,
    "lon": -0.132754
  },
  {
    "name": "Euston Square",
    "id": "940GZZLUESQ",
    "lat": 51.525604,
    "lon": -0.135829
  },
  {
    "name": "Fairlop",
    "id": "940GZZLUFLP",
    "lat": 51.595618,
    "lon": 0.091004
  },
  {
    "name": "Falconwood",
    "id": "910GFALCNWD",
    "lat": 51.459154,
    "lon": 0.079305
  },
  {
    "name": "Farringdon",
    "id": "910GFRNDNLT",
    "lat": 51.520214,
    "lon": -0.105054
  },
  {
    "name": "Feltham",
    "id": "910GFELTHAM",
    "lat": 51.447898,
    "lon": -0.409838
  },
  {
    "name": "Fenchurch Street",
    "id": "910GFENCHRS",
    "lat": 51.511646,
    "lon": -0.078897
  },
  {
    "name": "Finchley Central",
    "id": "940GZZLUFYC",
    "lat": 51.600921,
    "lon": -0.192527
  },
  {
    "name": "Finchley Road",
    "id": "940GZZLUFYR",
    "lat": 51.546825,
    "lon": -0.179845
  },
  {
    "name": "Finchley Road & Frognal",
    "id": "910GFNCHLYR",
    "lat": 51.550266,
    "lon": -0.183141
  },
  {
    "name": "Finsbury Park",
    "id": "910GFNPK",
    "lat": 51.564778,
    "lon": -0.105876
  },
  {
    "name": "Forest Gate",
    "id": "910GFRSTGT",
    "lat": 51.549432,
    "lon": 0.024353
  },
  {
    "name": "Forest Hill",
    "id": "910GFORESTH",
    "lat": 51.43928,
    "lon": -0.053157
  },
  {
    "name": "Fulham Broadway",
    "id": "940GZZLUFBY",
    "lat": 51.480081,
    "lon": -0.195422
  },
  {
    "name": "Fulwell",
    "id": "910GFULWELL",
    "lat": 51.433935,
    "lon": -0.349468
  },
  {
    "name": "Gallions Reach",
    "id": "940GZZDLGAL",
    "lat": 51.508941,
    "lon": 0.071555
  },
  {
    "name": "Gants Hill",
    "id": "940GZZLUGTH",
    "lat": 51.576544,
    "lon": 0.066185
  },
  {
    "name": "Gidea Park",
    "id": "910GGIDEAPK",
    "lat": 51.581904,
    "lon": 0.205964
  },
  {
    "name": "Gipsy Hill",
    "id": "910GGIPSYH",
    "lat": 51.424453,
    "lon": -0.083836
  },
  {
    "name": "Gloucester Road",
    "id": "940GZZLUGTR",
    "lat": 51.494316,
    "lon": -0.182658
  },
  {
    "name": "Golders Green",
    "id": "940GZZLUGGN",
    "lat": 51.572259,
    "lon": -0.194039
  },
  {
    "name": "Goldhawk Road",
    "id": "940GZZLUGHK",
    "lat": 51.502005,
    "lon": -0.226715
  },
  {
    "name": "Goodge Street",
    "id": "940GZZLUGDG",
    "lat": 51.520599,
    "lon": -0.134361
  },
  {
    "name": "Goodmayes",
    "id": "910GGODMAYS",
    "lat": 51.565579,
    "lon": 0.110807
  },
  {
    "name": "Gordon Hill",
    "id": "910GGORDONH",
    "lat": 51.664113,
    "lon": -0.094997
  },
  {
    "name": "Gospel Oak",
    "id": "910GGOSPLOK",
    "lat": 51.555335,
    "lon": -0.15077
  },
  {
    "name": "Grange Park",
    "id": "910GGRPK",
    "lat": 51.642607,
    "lon": -0.097358
  },
  {
    "name": "Great Portland Street",
    "id": "940GZZLUGPS",
    "lat": 51.52384,
    "lon": -0.144262
  },
  {
    "name": "Green Park",
    "id": "940GZZLUGPK",
    "lat": 51.506947,
    "lon": -0.142787
  },
  {
    "name": "Greenford",
    "id": "910GGFORD",
    "lat": 51.542657,
    "lon": -0.345789
  },
  {
    "name": "Greenwich",
    "id": "910GGNWH",
    "lat": 51.478235,
    "lon": -0.014096
  },
  {
    "name": "Grove Park",
    "id": "910GGRVPK",
    "lat": 51.430863,
    "lon": 0.021726
  },
  {
    "name": "Gunnersbury",
    "id": "910GGNRSBRY",
    "lat": 51.491745,
    "lon": -0.275276
  },
  {
    "name": "Hackbridge",
    "id": "910GHKBG",
    "lat": 51.378051,
    "lon": -0.153986
  },
  {
    "name": "Hackney Central",
    "id": "910GHACKNYC",
    "lat": 51.547105,
    "lon": -0.056058
  },
  {
    "name": "Hackney Downs",
    "id": "910GHACKNYC",
    "lat": 51.547105,
    "lon": -0.056058
  },
  {
    "name": "Hackney Wick",
    "id": "910GHACKNYW",
    "lat": 51.54341,
    "lon": -0.02492
  },
  {
    "name": "Hadley Wood",
    "id": "910GHADLYWD",
    "lat": 51.668497,
    "lon": -0.176172
  },
  {
    "name": "Haggerston",
    "id": "910GHAGGERS",
    "lat": 51.538705,
    "lon": -0.075666
  },
  {
    "name": "Hainault",
    "id": "940GZZLUHLT",
    "lat": 51.603659,
    "lon": 0.093482
  },
  {
    "name": "Hammersmith",
    "id": "940GZZLUHSD",
    "lat": 51.492304,
    "lon": -0.223619
  },
  {
    "name": "Hammersmith (District and Piccadilly)",
    "id": "940GZZLUHSC",
    "lat": 51.492304,
    "lon": -0.223619
  },
  {
    "name": "Hampstead",
    "id": "940GZZLUHTD",
    "lat": 51.556239,
    "lon": -0.177464
  },
  {
    "name": "Hampstead Heath",
    "id": "910GHMPSTDH",
    "lat": 51.55521,
    "lon": -0.165705
  },
  {
    "name": "Hampton (London)",
    "id": "910GHAMPTON",
    "lat": 51.415934,
    "lon": -0.372119
  },
  {
    "name": "Hampton Wick",
    "id": "910GHAMWICK",
    "lat": 51.414524,
    "lon": -0.312489
  },
  {
    "name": "Hanger Lane",
    "id": "940GZZLUHGR",
    "lat": 51.530177,
    "lon": -0.292704
  },
  {
    "name": "Hanwell",
    "id": "910GHANWELL",
    "lat": 51.511835,
    "lon": -0.338583
  },
  {
    "name": "Harlesden",
    "id": "910GHARLSDN",
    "lat": 51.536305,
    "lon": -0.257774
  },
  {
    "name": "Harold Wood",
    "id": "910GHRLDWOD",
    "lat": 51.592766,
    "lon": 0.233129
  },
  {
    "name": "Harringay",
    "id": "910GHRGY",
    "lat": 51.577358,
    "lon": -0.105136
  },
  {
    "name": "Harringay Green Lanes",
    "id": "910GHRGYGL",
    "lat": 51.577182,
    "lon": -0.098144
  },
  {
    "name": "Harrow & Wealdstone",
    "id": "910GHROW",
    "lat": 51.592216,
    "lon": -0.334896
  },
  {
    "name": "Harrow-on-the-Hill",
    "id": "910GHAROOTH",
    "lat": 51.579197,
    "lon": -0.337226
  },
  {
    "name": "Hatch End",
    "id": "910GHTCHEND",
    "lat": 51.609417,
    "lon": -0.368601
  },
  {
    "name": "Haydons Road",
    "id": "910GHYDNSRD",
    "lat": 51.425448,
    "lon": -0.188815
  },
  {
    "name": "Hayes & Harlington",
    "id": "910GHAYESAH",
    "lat": 51.503096,
    "lon": -0.420683
  },
  {
    "name": "Hayes (Kent)",
    "id": "910GHAYS",
    "lat": 51.376334,
    "lon": 0.010557
  },
  {
    "name": "Headstone Lane",
    "id": "910GHEDSTNL",
    "lat": 51.602649,
    "lon": -0.35722
  },
  {
    "name": "Heathrow Airport Terminal 5",
    "id": "910GHTRWTM5",
    "lat": 51.471569,
    "lon": -0.489556
  },
  {
    "name": "Hendon",
    "id": "910GHDON",
    "lat": 51.580068,
    "lon": -0.238674
  },
  {
    "name": "Hendon Central",
    "id": "940GZZLUHCL",
    "lat": 51.583301,
    "lon": -0.226424
  },
  {
    "name": "Herne Hill",
    "id": "910GHERNEH",
    "lat": 51.453305,
    "lon": -0.102289
  },
  {
    "name": "Heron Quays",
    "id": "940GZZDLHEQ",
    "lat": 51.503379,
    "lon": -0.021421
  },
  {
    "name": "High Barnet",
    "id": "940GZZLUHBT",
    "lat": 51.650541,
    "lon": -0.194298
  },
  {
    "name": "High Street Kensington",
    "id": "940GZZLUHSK",
    "lat": 51.501055,
    "lon": -0.192792
  },
  {
    "name": "Highams Park",
    "id": "910GHGHMSPK",
    "lat": 51.60835,
    "lon": -0.000222
  },
  {
    "name": "Highbury & Islington",
    "id": "910GHGHI",
    "lat": 51.546269,
    "lon": -0.103538
  },
  {
    "name": "Highgate",
    "id": "940GZZLUHGT",
    "lat": 51.577532,
    "lon": -0.145857
  },
  {
    "name": "Hillingdon",
    "id": "940GZZLUHGD",
    "lat": 51.553715,
    "lon": -0.449828
  },
  {
    "name": "Hither Green",
    "id": "910GHTHRGRN",
    "lat": 51.452025,
    "lon": -0.000944
  },
  {
    "name": "Holborn",
    "id": "940GZZLUHBN",
    "lat": 51.51758,
    "lon": -0.120475
  },
  {
    "name": "Holland Park",
    "id": "940GZZLUHPK",
    "lat": 51.507143,
    "lon": -0.205679
  },
  {
    "name": "Holloway Road",
    "id": "940GZZLUHWY",
    "lat": 51.552697,
    "lon": -0.113244
  },
  {
    "name": "Homerton",
    "id": "910GHOMRTON",
    "lat": 51.547012,
    "lon": -0.04236
  },
  {
    "name": "Honor Oak Park",
    "id": "910GHONROPK",
    "lat": 51.449989,
    "lon": -0.045505
  },
  {
    "name": "Hornchurch",
    "id": "940GZZLUHCH",
    "lat": 51.554093,
    "lon": 0.219116
  },
  {
    "name": "Hornsey",
    "id": "910GHRNSY",
    "lat": 51.586461,
    "lon": -0.111975
  },
  {
    "name": "Hounslow",
    "id": "910GHOUNSLW",
    "lat": 51.461946,
    "lon": -0.362277
  },
  {
    "name": "Hounslow Central",
    "id": "940GZZLUHWC",
    "lat": 51.471295,
    "lon": -0.366578
  },
  {
    "name": "Hounslow East",
    "id": "940GZZLUHWE",
    "lat": 51.473213,
    "lon": -0.356474
  },
  {
    "name": "Hounslow West",
    "id": "940GZZLUHWT",
    "lat": 51.473469,
    "lon": -0.386544
  },
  {
    "name": "Hoxton",
    "id": "910GHOXTON",
    "lat": 51.531512,
    "lon": -0.075681
  },
  {
    "name": "Hyde Park Corner",
    "id": "940GZZLUHPC",
    "lat": 51.503035,
    "lon": -0.152441
  },
  {
    "name": "Ickenham",
    "id": "940GZZLUICK",
    "lat": 51.561992,
    "lon": -0.442001
  },
  {
    "name": "Ilford",
    "id": "910GILFORD",
    "lat": 51.559118,
    "lon": 0.06968
  },
  {
    "name": "Imperial Wharf",
    "id": "910GCSEAH",
    "lat": 51.47555,
    "lon": -0.183084
  },
  {
    "name": "Island Gardens",
    "id": "940GZZDLISL",
    "lat": 51.487811,
    "lon": -0.010139
  },
  {
    "name": "Isleworth",
    "id": "910GISLEWTH",
    "lat": 51.474763,
    "lon": -0.336907
  },
  {
    "name": "Kenley",
    "id": "910GKNLY",
    "lat": 51.324777,
    "lon": -0.100925
  },
  {
    "name": "Kennington",
    "id": "940GZZLUKNG",
    "lat": 51.488337,
    "lon": -0.105963
  },
  {
    "name": "Kensal Green",
    "id": "910GKENSLG",
    "lat": 51.530545,
    "lon": -0.22505
  },
  {
    "name": "Kensal Rise",
    "id": "910GKENR",
    "lat": 51.534554,
    "lon": -0.219957
  },
  {
    "name": "Kensington Olympia",
    "id": "910GKENOLYM",
    "lat": 51.496156,
    "lon": -0.210502
  },
  {
    "name": "Kent House",
    "id": "910GKENTHOS",
    "lat": 51.412215,
    "lon": -0.045247
  },
  {
    "name": "Kentish Town",
    "id": "910GKNTSHTN",
    "lat": 51.550409,
    "lon": -0.140545
  },
  {
    "name": "Kentish Town West",
    "id": "910GKNTSHTW",
    "lat": 51.546548,
    "lon": -0.146655
  },
  {
    "name": "Kenton",
    "id": "910GKTON",
    "lat": 51.581786,
    "lon": -0.316946
  },
  {
    "name": "Kew Bridge",
    "id": "910GKEWBDGE",
    "lat": 51.489513,
    "lon": -0.287108
  },
  {
    "name": "Kew Gardens",
    "id": "910GKEWGRDN",
    "lat": 51.477069,
    "lon": -0.285148
  },
  {
    "name": "Kidbrooke",
    "id": "910GKIDBROK",
    "lat": 51.462121,
    "lon": 0.027498
  },
  {
    "name": "Kilburn",
    "id": "910GBRBY",
    "lat": 51.545166,
    "lon": -0.202309
  },
  {
    "name": "Kilburn High Road",
    "id": "910GKLBRNHR",
    "lat": 51.537277,
    "lon": -0.192237
  },
  {
    "name": "Kilburn Park",
    "id": "910GKLBRNHR",
    "lat": 51.537277,
    "lon": -0.192237
  },
  {
    "name": "Kings Cross",
    "id": "910GKNGX",
    "lat": 51.531683,
    "lon": -0.123538
  },
  {
    "name": "Kingsbury",
    "id": "940GZZLUKBY",
    "lat": 51.584845,
    "lon": -0.27879
  },
  {
    "name": "Kingston",
    "id": "910GKGSTON",
    "lat": 51.412751,
    "lon": -0.301166
  },
  {
    "name": "Knightsbridge",
    "id": "940GZZLUKNB",
    "lat": 51.501669,
    "lon": -0.160508
  },
  {
    "name": "Knockholt",
    "id": "910GKNCKHLT",
    "lat": 51.34579,
    "lon": 0.130847
  },
  {
    "name": "Ladbroke Grove",
    "id": "940GZZLULAD",
    "lat": 51.517449,
    "lon": -0.210391
  },
  {
    "name": "Ladywell",
    "id": "910GLDYW",
    "lat": 51.456244,
    "lon": -0.019041
  },
  {
    "name": "Lambeth North",
    "id": "940GZZLULBN",
    "lat": 51.498808,
    "lon": -0.112315
  },
  {
    "name": "Lancaster Gate",
    "id": "940GZZLULGT",
    "lat": 51.511723,
    "lon": -0.175494
  },
  {
    "name": "Latimer Road",
    "id": "940GZZLULRD",
    "lat": 51.513389,
    "lon": -0.217799
  },
  {
    "name": "Lea Bridge",
    "id": "910GLEABDGE",
    "lat": 51.566548,
    "lon": -0.036673
  },
  {
    "name": "Lee (London)",
    "id": "910GLEEE",
    "lat": 51.449755,
    "lon": 0.013493
  },
  {
    "name": "Leicester Square",
    "id": "940GZZLULSQ",
    "lat": 51.511386,
    "lon": -0.128426
  },
  {
    "name": "Lewisham",
    "id": "910GLEWISHM",
    "lat": 51.465081,
    "lon": -0.013016
  },
  {
    "name": "Leyton",
    "id": "940GZZLULYN",
    "lat": 51.556589,
    "lon": -0.005523
  },
  {
    "name": "Leyton Midland Road",
    "id": "910GLEYTNMR",
    "lat": 51.569725,
    "lon": -0.008051
  },
  {
    "name": "Leytonstone",
    "id": "940GZZLULYS",
    "lat": 51.568324,
    "lon": 0.008194
  },
  {
    "name": "Leytonstone High Road",
    "id": "910GLYTNSHR",
    "lat": 51.563554,
    "lon": 0.008416
  },
  {
    "name": "Limehouse",
    "id": "910GLIMHSE",
    "lat": 51.512469,
    "lon": -0.039799
  },
  {
    "name": "Liverpool Street",
    "id": "910GLIVST",
    "lat": 51.51794,
    "lon": -0.083162
  },
  {
    "name": "London Bridge",
    "id": "910GLNDNBDC",
    "lat": 51.505881,
    "lon": -0.086807
  },
  {
    "name": "London Fields",
    "id": "910GLONFLDS",
    "lat": 51.541153,
    "lon": -0.057753
  },
  {
    "name": "Loughborough Junction",
    "id": "910GLBGHJN",
    "lat": 51.466298,
    "lon": -0.102182
  },
  {
    "name": "Lower Sydenham",
    "id": "910GLSYDNHM",
    "lat": 51.424831,
    "lon": -0.033345
  },
  {
    "name": "Maida Vale",
    "id": "940GZZLUMVL",
    "lat": 51.529777,
    "lon": -0.185758
  },
  {
    "name": "Malden Manor",
    "id": "910GMALDENM",
    "lat": 51.38473,
    "lon": -0.261274
  },
  {
    "name": "Manor House",
    "id": "940GZZLUMRH",
    "lat": 51.570738,
    "lon": -0.096118
  },
  {
    "name": "Manor Park",
    "id": "910GMANRPK",
    "lat": 51.552477,
    "lon": 0.046342
  },
  {
    "name": "Mansion House",
    "id": "940GZZLUMSH",
    "lat": 51.512117,
    "lon": -0.094009
  },
  {
    "name": "Marble Arch",
    "id": "940GZZLUMBA",
    "lat": 51.513424,
    "lon": -0.158953
  },
  {
    "name": "Maryland",
    "id": "910GMRYLAND",
    "lat": 51.546081,
    "lon": 0.005815
  },
  {
    "name": "Marylebone",
    "id": "910GMARYLBN",
    "lat": 51.521602,
    "lon": -0.163013
  },
  {
    "name": "Maze Hill",
    "id": "910GMAZEH",
    "lat": 51.482625,
    "lon": 0.002914
  },
  {
    "name": "Merdian Water",
    "id": "940GZZLUAGL",
    "lat": 51.532624,
    "lon": -0.105898
  },
  {
    "name": "Mile End",
    "id": "940GZZLUMED",
    "lat": 51.525122,
    "lon": -0.03364
  },
  {
    "name": "Mill Hill Broadway",
    "id": "910GMLHB",
    "lat": 51.613093,
    "lon": -0.24924
  },
  {
    "name": "Mill Hill East",
    "id": "940GZZLUMHL",
    "lat": 51.608229,
    "lon": -0.209986
  },
  {
    "name": "Mitcham Eastfields",
    "id": "910GESTFLDS",
    "lat": 51.407739,
    "lon": -0.154646
  },
  {
    "name": "Mitcham Junction",
    "id": "910GMITCHMJ",
    "lat": 51.393147,
    "lon": -0.158738
  },
  {
    "name": "Monument",
    "id": "940GZZLUBNK",
    "lat": 51.513395,
    "lon": -0.089095
  },
  {
    "name": "Moor Park",
    "id": "940GZZLUMPK",
    "lat": 51.629845,
    "lon": -0.432454
  },
  {
    "name": "Moorgate",
    "id": "910GMRGT",
    "lat": 51.518338,
    "lon": -0.088627
  },
  {
    "name": "Morden",
    "id": "940GZZLUMDN",
    "lat": 51.402142,
    "lon": -0.194839
  },
  {
    "name": "Morden South",
    "id": "910GMORDENS",
    "lat": 51.396116,
    "lon": -0.199461
  },
  {
    "name": "Mornington Crescent",
    "id": "940GZZLUMTC",
    "lat": 51.534679,
    "lon": -0.138789
  },
  {
    "name": "Mortlake",
    "id": "910GMRTLKE",
    "lat": 51.468087,
    "lon": -0.267106
  },
  {
    "name": "Motspur Park",
    "id": "910GMOTSPRP",
    "lat": 51.395196,
    "lon": -0.239531
  },
  {
    "name": "Mottingham",
    "id": "910GMOTNGHM",
    "lat": 51.440218,
    "lon": 0.050054
  },
  {
    "name": "Mudchute",
    "id": "940GZZDLMUD",
    "lat": 51.490704,
    "lon": -0.014738
  },
  {
    "name": "Neasden",
    "id": "940GZZLUNDN",
    "lat": 51.553986,
    "lon": -0.249837
  },
  {
    "name": "New Barnet",
    "id": "910GNBARNET",
    "lat": 51.648575,
    "lon": -0.172997
  },
  {
    "name": "New Beckenham",
    "id": "910GNBCKNHM",
    "lat": 51.41677,
    "lon": -0.035273
  },
  {
    "name": "New Cross",
    "id": "910GNWCRELL",
    "lat": 51.476347,
    "lon": -0.032427
  },
  {
    "name": "New Cross Gate",
    "id": "910GNEWXGEL",
    "lat": 51.475132,
    "lon": -0.040399
  },
  {
    "name": "New Eltham",
    "id": "910GNWELTHM",
    "lat": 51.43806,
    "lon": 0.070533
  },
  {
    "name": "New Malden",
    "id": "910GNEWMLDN",
    "lat": 51.404075,
    "lon": -0.25594
  },
  {
    "name": "New Southgate",
    "id": "910GNEWSGAT",
    "lat": 51.614114,
    "lon": -0.143038
  },
  {
    "name": "Newbury Park",
    "id": "910GILFENBP",
    "lat": 51.57504,
    "lon": 0.089684
  },
  {
    "name": "Norbiton",
    "id": "910GNRBITON",
    "lat": 51.412358,
    "lon": -0.284025
  },
  {
    "name": "Norbury",
    "id": "910GNORBURY",
    "lat": 51.411446,
    "lon": -0.121926
  },
  {
    "name": "North Acton",
    "id": "940GZZLUNAN",
    "lat": 51.523524,
    "lon": -0.259755
  },
  {
    "name": "North Dulwich",
    "id": "910GNDULWCH",
    "lat": 51.45451,
    "lon": -0.087917
  },
  {
    "name": "North Ealing",
    "id": "940GZZLUNEN",
    "lat": 51.517505,
    "lon": -0.288868
  },
  {
    "name": "North Greenwich",
    "id": "940GZZLUNGW",
    "lat": 51.500474,
    "lon": 0.004295
  },
  {
    "name": "North Harrow",
    "id": "940GZZLUNHA",
    "lat": 51.584872,
    "lon": -0.362408
  },
  {
    "name": "North Sheen",
    "id": "910GNSHEEN",
    "lat": 51.465155,
    "lon": -0.287876
  },
  {
    "name": "North Wembley",
    "id": "910GNWEMBLY",
    "lat": 51.56258,
    "lon": -0.303992
  },
  {
    "name": "Northfields",
    "id": "940GZZLUNFD",
    "lat": 51.499319,
    "lon": -0.314719
  },
  {
    "name": "Northolt",
    "id": "940GZZLUNHT",
    "lat": 51.548236,
    "lon": -0.368699
  },
  {
    "name": "Northolt Park",
    "id": "910GNTHOLTP",
    "lat": 51.55754,
    "lon": -0.359466
  },
  {
    "name": "Northumberland Park",
    "id": "910GNMBRLPK",
    "lat": 51.601969,
    "lon": -0.053932
  },
  {
    "name": "Northwick Park",
    "id": "940GZZLUNKP",
    "lat": 51.578481,
    "lon": -0.318056
  },
  {
    "name": "Northwood",
    "id": "940GZZLUNOW",
    "lat": 51.611053,
    "lon": -0.423829
  },
  {
    "name": "Northwood Hills",
    "id": "940GZZLUNWH",
    "lat": 51.600572,
    "lon": -0.409464
  },
  {
    "name": "Norwood Junction",
    "id": "910GNORWDJ",
    "lat": 51.39702,
    "lon": -0.075216
  },
  {
    "name": "Notting Hill Gate",
    "id": "940GZZLUNHG",
    "lat": 51.509128,
    "lon": -0.196104
  },
  {
    "name": "Nunhead",
    "id": "910GNUNHEAD",
    "lat": 51.466828,
    "lon": -0.052273
  },
  {
    "name": "Oakleigh Park",
    "id": "910GOKLGHPK",
    "lat": 51.637678,
    "lon": -0.166209
  },
  {
    "name": "Oakwood",
    "id": "940GZZLUOAK",
    "lat": 51.647726,
    "lon": -0.132182
  },
  {
    "name": "Old Street",
    "id": "910GOLDST",
    "lat": 51.526065,
    "lon": -0.088193
  },
  {
    "name": "Orpington",
    "id": "910GORPNGTN",
    "lat": 51.373296,
    "lon": 0.089091
  },
  {
    "name": "Osterley",
    "id": "940GZZLUOSY",
    "lat": 51.481274,
    "lon": -0.352224
  },
  {
    "name": "Otford",
    "id": "910GOTFORD",
    "lat": 51.313158,
    "lon": 0.196779
  },
  {
    "name": "Oval",
    "id": "940GZZLUOVL",
    "lat": 51.48185,
    "lon": -0.112439
  },
  {
    "name": "Oxford Circus",
    "id": "940GZZLUOXC",
    "lat": 51.515224,
    "lon": -0.141903
  },
  {
    "name": "Paddington",
    "id": "910GPADTON",
    "lat": 51.516981,
    "lon": -0.17616
  },
  {
    "name": "Palmers Green",
    "id": "910GPALMRSG",
    "lat": 51.618314,
    "lon": -0.110437
  },
  {
    "name": "Park Royal",
    "id": "940GZZLUPKR",
    "lat": 51.527123,
    "lon": -0.284341
  },
  {
    "name": "Parsons Green",
    "id": "940GZZLUPSG",
    "lat": 51.475277,
    "lon": -0.20117
  },
  {
    "name": "Peckham Rye",
    "id": "910GPCKHMRY",
    "lat": 51.470034,
    "lon": -0.069414
  },
  {
    "name": "Penge East",
    "id": "910GPNGEE",
    "lat": 51.419334,
    "lon": -0.05422
  },
  {
    "name": "Penge West",
    "id": "910GPENEW",
    "lat": 51.417555,
    "lon": -0.06084
  },
  {
    "name": "Perivale",
    "id": "940GZZLUPVL",
    "lat": 51.536717,
    "lon": -0.323446
  },
  {
    "name": "Petts Wood",
    "id": "910GPETSWD",
    "lat": 51.388619,
    "lon": 0.074481
  },
  {
    "name": "Piccadilly Circus",
    "id": "940GZZLUPCC",
    "lat": 51.51005,
    "lon": -0.133798
  },
  {
    "name": "Pimlico",
    "id": "940GZZLUPCO",
    "lat": 51.489097,
    "lon": -0.133761
  },
  {
    "name": "Pinner",
    "id": "940GZZLUPNR",
    "lat": 51.592901,
    "lon": -0.381161
  },
  {
    "name": "Plaistow",
    "id": "940GZZLUPLW",
    "lat": 51.531341,
    "lon": 0.017451
  },
  {
    "name": "Plumstead",
    "id": "910GPLMS",
    "lat": 51.489795,
    "lon": 0.084257
  },
  {
    "name": "Ponders End",
    "id": "910GPNDRSEN",
    "lat": 51.642256,
    "lon": -0.03508
  },
  {
    "name": "Poplar",
    "id": "940GZZDLPOP",
    "lat": 51.507744,
    "lon": -0.017384
  },
  {
    "name": "Preston Road",
    "id": "940GZZLUPRD",
    "lat": 51.571972,
    "lon": -0.295107
  },
  {
    "name": "Prince Regent",
    "id": "940GZZDLPRE",
    "lat": 51.509263,
    "lon": 0.034158
  },
  {
    "name": "Pudding Mill Lane",
    "id": "940GZZDLPUD",
    "lat": 51.534302,
    "lon": -0.012755
  },
  {
    "name": "Purley",
    "id": "910GPURLEY",
    "lat": 51.337579,
    "lon": -0.114035
  },
  {
    "name": "Purley Oaks",
    "id": "910GPURLEYO",
    "lat": 51.347046,
    "lon": -0.098856
  },
  {
    "name": "Putney",
    "id": "910GPUTNEY",
    "lat": 51.461303,
    "lon": -0.216475
  },
  {
    "name": "Putney Bridge",
    "id": "940GZZLUPYB",
    "lat": 51.468262,
    "lon": -0.208731
  },
  {
    "name": "Queens Park",
    "id": "910GQPRK",
    "lat": 51.534443,
    "lon": -0.204882
  },
  {
    "name": "Queens Road (Peckham)",
    "id": "910GPCKHMQD",
    "lat": 51.473566,
    "lon": -0.057313
  },
  {
    "name": "Queensbury",
    "id": "940GZZLUQBY",
    "lat": 51.594188,
    "lon": -0.286219
  },
  {
    "name": "Queenstown Road (Battersea)",
    "id": "910GQTRDBAT",
    "lat": 51.474968,
    "lon": -0.146678
  },
  {
    "name": "Queensway",
    "id": "940GZZLUQWY",
    "lat": 51.510312,
    "lon": -0.187152
  },
  {
    "name": "Rainham (Essex)",
    "id": "910GRNHAME",
    "lat": 51.516723,
    "lon": 0.190634
  },
  {
    "name": "Ravensbourne",
    "id": "910GRBRN",
    "lat": 51.414188,
    "lon": -0.007557
  },
  {
    "name": "Ravenscourt Park",
    "id": "940GZZLURVP",
    "lat": 51.494122,
    "lon": -0.235881
  },
  {
    "name": "Rayners Lane",
    "id": "940GZZLURYL",
    "lat": 51.575147,
    "lon": -0.371127
  },
  {
    "name": "Raynes Park",
    "id": "910GRAYNSPK",
    "lat": 51.409173,
    "lon": -0.230151
  },
  {
    "name": "Rectory Road",
    "id": "910GRCTRYRD",
    "lat": 51.558502,
    "lon": -0.068267
  },
  {
    "name": "Reedham (Surrey)",
    "id": "910GREEDHMS",
    "lat": 51.33112,
    "lon": -0.123416
  },
  {
    "name": "Regents Park",
    "id": "940GZZLURGP",
    "lat": 51.523344,
    "lon": -0.146444
  },
  {
    "name": "Richmond",
    "id": "910GRICHMND",
    "lat": 51.463152,
    "lon": -0.301448
  },
  {
    "name": "Riddlesdown",
    "id": "910GRDLSDWN",
    "lat": 51.332486,
    "lon": -0.099387
  },
  {
    "name": "Romford",
    "id": "910GROMFORD",
    "lat": 51.574829,
    "lon": 0.183237
  },
  {
    "name": "Rotherhithe",
    "id": "910GCNDAW",
    "lat": 51.498053,
    "lon": -0.049667
  },
  {
    "name": "Royal Albert",
    "id": "940GZZDLRAL",
    "lat": 51.508357,
    "lon": 0.045935
  },
  {
    "name": "Royal Oak",
    "id": "940GZZLURYO",
    "lat": 51.519113,
    "lon": -0.188748
  },
  {
    "name": "Royal Victoria",
    "id": "940GZZDLRVC",
    "lat": 51.50934,
    "lon": 0.018505
  },
  {
    "name": "Ruislip",
    "id": "940GZZLURSP",
    "lat": 51.571354,
    "lon": -0.421898
  },
  {
    "name": "Ruislip Gardens",
    "id": "940GZZLURSG",
    "lat": 51.560736,
    "lon": -0.41071
  },
  {
    "name": "Ruislip Manor",
    "id": "940GZZLURSM",
    "lat": 51.573202,
    "lon": -0.412973
  },
  {
    "name": "Russell Square",
    "id": "940GZZLURSQ",
    "lat": 51.523073,
    "lon": -0.124285
  },
  {
    "name": "Sanderstead",
    "id": "910GSDSD",
    "lat": 51.348283,
    "lon": -0.093678
  },
  {
    "name": "Selhurst",
    "id": "910GSELHRST",
    "lat": 51.391927,
    "lon": -0.0883
  },
  {
    "name": "Seven Kings",
    "id": "910GSVNKNGS",
    "lat": 51.564026,
    "lon": 0.0971
  },
  {
    "name": "Seven Sisters",
    "id": "940GZZLUSVS",
    "lat": 51.582931,
    "lon": -0.073306
  },
  {
    "name": "Shadwell",
    "id": "910GSHADWEL",
    "lat": 51.511492,
    "lon": -0.056782
  },
  {
    "name": "Shepherds Bush",
    "id": "910GSHPDSB",
    "lat": 51.504791,
    "lon": -0.219213
  },
  {
    "name": "Shepherds Bush Market",
    "id": "940GZZLUSBM",
    "lat": 51.505579,
    "lon": -0.226375
  },
  {
    "name": "Shoreditch High Street",
    "id": "910GSHRDHST",
    "lat": 51.523375,
    "lon": -0.075246
  },
  {
    "name": "Shoreham (Kent)",
    "id": "910GSHRMKT",
    "lat": 51.332219,
    "lon": 0.18889
  },
  {
    "name": "Shortlands",
    "id": "910GSHRTLND",
    "lat": 51.405801,
    "lon": 0.001784
  },
  {
    "name": "Sidcup",
    "id": "910GSIDCUP",
    "lat": 51.43387,
    "lon": 0.103795
  },
  {
    "name": "Silver Street",
    "id": "910GSIVRST",
    "lat": 51.614688,
    "lon": -0.06724
  },
  {
    "name": "Slade Green",
    "id": "910GSLADEGN",
    "lat": 51.467786,
    "lon": 0.190491
  },
  {
    "name": "Sloane Square",
    "id": "940GZZLUSSQ",
    "lat": 51.49227,
    "lon": -0.156377
  },
  {
    "name": "Snaresbrook",
    "id": "940GZZLUSNB",
    "lat": 51.580678,
    "lon": 0.02144
  },
  {
    "name": "South Acton",
    "id": "910GSACTON",
    "lat": 51.499695,
    "lon": -0.270157
  },
  {
    "name": "South Bermondsey",
    "id": "910GSBRMNDS",
    "lat": 51.488136,
    "lon": -0.054678
  },
  {
    "name": "South Croydon",
    "id": "910GSCROYDN",
    "lat": 51.362965,
    "lon": -0.093457
  },
  {
    "name": "South Ealing",
    "id": "940GZZLUSEA",
    "lat": 51.501003,
    "lon": -0.307424
  },
  {
    "name": "South Greenford",
    "id": "910GSGFORD",
    "lat": 51.533749,
    "lon": -0.336704
  },
  {
    "name": "South Hampstead",
    "id": "910GSHMPSTD",
    "lat": 51.541432,
    "lon": -0.178878
  },
  {
    "name": "South Harrow",
    "id": "940GZZLUSHH",
    "lat": 51.564888,
    "lon": -0.352492
  },
  {
    "name": "South Kensington",
    "id": "940GZZLUSKS",
    "lat": 51.494094,
    "lon": -0.174138
  },
  {
    "name": "South Kenton",
    "id": "910GSKENTON",
    "lat": 51.570229,
    "lon": -0.308448
  },
  {
    "name": "South Merton",
    "id": "910GSMERTON",
    "lat": 51.402993,
    "lon": -0.205157
  },
  {
    "name": "South Quay",
    "id": "940GZZDLSOQ",
    "lat": 51.500048,
    "lon": -0.015975
  },
  {
    "name": "South Ruislip",
    "id": "910GSRUISLP",
    "lat": 51.556893,
    "lon": -0.399076
  },
  {
    "name": "South Tottenham",
    "id": "910GSTOTNHM",
    "lat": 51.580372,
    "lon": -0.072103
  },
  {
    "name": "South Wimbledon",
    "id": "940GZZLUSWN",
    "lat": 51.415309,
    "lon": -0.192005
  },
  {
    "name": "South Woodford",
    "id": "940GZZLUSWF",
    "lat": 51.591907,
    "lon": 0.027338
  },
  {
    "name": "Southall",
    "id": "910GSTHALL",
    "lat": 51.505957,
    "lon": -0.37861
  },
  {
    "name": "Southbury",
    "id": "910GSBURY",
    "lat": 51.648705,
    "lon": -0.052437
  },
  {
    "name": "Southfields",
    "id": "940GZZLUSFS",
    "lat": 51.445073,
    "lon": -0.206602
  },
  {
    "name": "Southgate",
    "id": "940GZZLUSGT",
    "lat": 51.632315,
    "lon": -0.127816
  },
  {
    "name": "Southwark",
    "id": "910GWLOE",
    "lat": 51.504076,
    "lon": -0.108898
  },
  {
    "name": "St Helier (Surrey)",
    "id": "910GSHLIER",
    "lat": 51.389901,
    "lon": -0.198771
  },
  {
    "name": "St James Street",
    "id": "910GSTJMSST",
    "lat": 51.580981,
    "lon": -0.032918
  },
  {
    "name": "St Jamess Park",
    "id": "940GZZLUSJP",
    "lat": 51.499544,
    "lon": -0.133608
  },
  {
    "name": "St Johns (London)",
    "id": "910GSTJOHNS",
    "lat": 51.469391,
    "lon": -0.022719
  },
  {
    "name": "St Johns Wood",
    "id": "940GZZLUSJW",
    "lat": 51.534521,
    "lon": -0.173948
  },
  {
    "name": "St Margarets (London)",
    "id": "910GSTMGTS",
    "lat": 51.455236,
    "lon": -0.3202
  },
  {
    "name": "St Mary Cray",
    "id": "910GSTMRYC",
    "lat": 51.394749,
    "lon": 0.106384
  },
  {
    "name": "St Pancras International",
    "id": "910GSTPADOM",
    "lat": 51.531683,
    "lon": -0.123538
  },
  {
    "name": "St Pauls",
    "id": "940GZZLUSPU",
    "lat": 51.514936,
    "lon": -0.097567
  },
  {
    "name": "Stamford Brook",
    "id": "940GZZLUSFB",
    "lat": 51.494917,
    "lon": -0.245704
  },
  {
    "name": "Stamford Hill",
    "id": "910GSTMFDHL",
    "lat": 51.574467,
    "lon": -0.076682
  },
  {
    "name": "Stanmore",
    "id": "940GZZLUSTM",
    "lat": 51.619839,
    "lon": -0.303266
  },
  {
    "name": "Stepney Green",
    "id": "940GZZLUSGN",
    "lat": 51.521858,
    "lon": -0.046596
  },
  {
    "name": "Stockwell",
    "id": "940GZZLUSKW",
    "lat": 51.472184,
    "lon": -0.122644
  },
  {
    "name": "Stoke Newington",
    "id": "910GSTKNWNG",
    "lat": 51.565233,
    "lon": -0.072887
  },
  {
    "name": "Stonebridge Park",
    "id": "910GSTNBGPK",
    "lat": 51.544041,
    "lon": -0.275859
  },
  {
    "name": "Stratford",
    "id": "910GSTFD",
    "lat": 51.541508,
    "lon": -0.00241
  },
  {
    "name": "Stratford International",
    "id": "910GSTFODOM",
    "lat": 51.544828,
    "lon": -0.008778
  },
  {
    "name": "Strawberry Hill",
    "id": "910GSTRWBYH",
    "lat": 51.438963,
    "lon": -0.339358
  },
  {
    "name": "Streatham (Greater London)",
    "id": "910GSTRETHM",
    "lat": 51.425808,
    "lon": -0.13155
  },
  {
    "name": "Streatham Common",
    "id": "910GSTRHCOM",
    "lat": 51.41873,
    "lon": -0.13601
  },
  {
    "name": "Streatham Hill",
    "id": "910GSTRHILL",
    "lat": 51.438193,
    "lon": -0.12716
  },
  {
    "name": "Sudbury & Harrow Road",
    "id": "910GSDBRYHR",
    "lat": 51.554398,
    "lon": -0.315468
  },
  {
    "name": "Sudbury Hill",
    "id": "910GSDBRYHH",
    "lat": 51.558465,
    "lon": -0.335803
  },
  {
    "name": "Sudbury Hill Harrow",
    "id": "910GSDBRYHH",
    "lat": 51.558465,
    "lon": -0.335803
  },
  {
    "name": "Sudbury Town",
    "id": "940GZZLUSUT",
    "lat": 51.550815,
    "lon": -0.315745
  },
  {
    "name": "Sundridge Park",
    "id": "910GSNDP",
    "lat": 51.413782,
    "lon": 0.021446
  },
  {
    "name": "Surbiton",
    "id": "910GSURBITN",
    "lat": 51.39246,
    "lon": -0.303958
  },
  {
    "name": "Surrey Quays",
    "id": "910GSURREYQ",
    "lat": 51.493196,
    "lon": -0.047519
  },
  {
    "name": "Swiss Cottage",
    "id": "940GZZLUSWC",
    "lat": 51.543681,
    "lon": -0.174894
  },
  {
    "name": "Sydenham",
    "id": "910GSYDENHM",
    "lat": 51.427375,
    "lon": -0.055268
  },
  {
    "name": "Sydenham Hill",
    "id": "910GSYDNHMH",
    "lat": 51.432714,
    "lon": -0.080339
  },
  {
    "name": "Syon Lane",
    "id": "910GSYONLA",
    "lat": 51.481785,
    "lon": -0.324842
  },
  {
    "name": "Teddington",
    "id": "910GTEDNGTN",
    "lat": 51.424481,
    "lon": -0.332706
  },
  {
    "name": "Temple",
    "id": "940GZZLUTMP",
    "lat": 51.511006,
    "lon": -0.11426
  },
  {
    "name": "Tooting",
    "id": "910GTOOTING",
    "lat": 51.419848,
    "lon": -0.161278
  },
  {
    "name": "Tooting Bec",
    "id": "940GZZLUTBC",
    "lat": 51.435678,
    "lon": -0.159736
  },
  {
    "name": "Tooting Broadway",
    "id": "940GZZLUTBY",
    "lat": 51.42763,
    "lon": -0.168374
  },
  {
    "name": "Tottenham Court Road",
    "id": "940GZZLUTCR",
    "lat": 51.516018,
    "lon": -0.130888
  },
  {
    "name": "Tottenham Hale",
    "id": "910GTTNHMHL",
    "lat": 51.588315,
    "lon": -0.06024
  },
  {
    "name": "Totteridge & Whetstone",
    "id": "940GZZLUTAW",
    "lat": 51.630597,
    "lon": -0.17921
  },
  {
    "name": "Tower Gateway",
    "id": "940GZZDLTWG",
    "lat": 51.510621,
    "lon": -0.074813
  },
  {
    "name": "Tower Hill",
    "id": "910GFENCHRS",
    "lat": 51.511646,
    "lon": -0.078897
  },
  {
    "name": "Tufnell Park",
    "id": "940GZZLUTFP",
    "lat": 51.556822,
    "lon": -0.138433
  },
  {
    "name": "Tulse Hill",
    "id": "910GTULSEH",
    "lat": 51.439861,
    "lon": -0.105077
  },
  {
    "name": "Turkey Street",
    "id": "910GTURKYST",
    "lat": 51.672628,
    "lon": -0.047217
  },
  {
    "name": "Turnham Green",
    "id": "940GZZLUTNG",
    "lat": 51.495148,
    "lon": -0.254555
  },
  {
    "name": "Turnpike Lane",
    "id": "940GZZLUTPN",
    "lat": 51.590272,
    "lon": -0.102953
  },
  {
    "name": "Twickenham",
    "id": "910GTWCKNHM",
    "lat": 51.450031,
    "lon": -0.330394
  },
  {
    "name": "Upminster",
    "id": "910GUPMNSTR",
    "lat": 51.558659,
    "lon": 0.250855
  },
  {
    "name": "Upminster Bridge",
    "id": "940GZZLUUPB",
    "lat": 51.55856,
    "lon": 0.235809
  },
  {
    "name": "Upney",
    "id": "940GZZLUUPY",
    "lat": 51.538372,
    "lon": 0.10153
  },
  {
    "name": "Upper Holloway",
    "id": "910GUPRHLWY",
    "lat": 51.563631,
    "lon": -0.129513
  },
  {
    "name": "Upton Park",
    "id": "940GZZLUUPK",
    "lat": 51.53534,
    "lon": 0.035263
  },
  {
    "name": "Uxbridge",
    "id": "940GZZLUUXB",
    "lat": 51.546565,
    "lon": -0.477949
  },
  {
    "name": "Vauxhall",
    "id": "910GVAUXHLM",
    "lat": 51.485739,
    "lon": -0.123303
  },
  {
    "name": "Victoria",
    "id": "910GVICTRIC",
    "lat": 51.495812,
    "lon": -0.143826
  },
  {
    "name": "Waddon",
    "id": "910GWADDON",
    "lat": 51.367398,
    "lon": -0.117336
  }
]